{
  "name": "Österreich",
  "way-points": [
    {
      "name": "Wien",
      "point": {
        "latitude": 48.2081743,
        "longitude": 16.3738189,
        "elevation": 171.0
      }
    },
    {
      "name": "Braunau am Inn",
      "point": {
        "latitude": 48.259124,
        "longitude": 13.047988,
        "elevation": 348.0
      }
    },
    {
      "name": "Eferding",
      "point": {
        "latitude": 48.30879,
        "longitude": 14.02023,
        "elevation": 269.0
      }
    },
    {
      "name": "Freistadt",
      "point": {
        "latitude": 48.50217,
        "longitude": 14.50201,
        "elevation": 547.0
      }
    },
    {
      "name": "Gmunden",
      "point": {
        "latitude": 47.91839,
        "longitude": 13.79933,
        "elevation": 434.0
      }
    },
    {
      "name": "Grieskirchen",
      "point": {
        "latitude": 48.23587,
        "longitude": 13.82617,
        "elevation": 342.0
      }
    },
    {
      "name": "Kirchdorf an der Krems",
      "point": {
        "latitude": 47.90626,
        "longitude": 14.11983,
        "elevation": 441.0
      }
    },
    {
      "name": "Linz",
      "point": {
        "latitude": 48.30694,
        "longitude": 14.28583,
        "elevation": 261.0
      }
    },
    {
      "name": "Perg",
      "point": {
        "latitude": 48.24992,
        "longitude": 14.63474,
        "elevation": 249.0
      }
    },
    {
      "name": "Ried im Innkreis",
      "point": {
        "latitude": 48.21272,
        "longitude": 13.49272,
        "elevation": 442.0
      }
    },
    {
      "name": "Rohrbach in Oberösterreich",
      "point": {
        "latitude": 48.5724264,
        "longitude": 13.9892409,
        "elevation": 599.0
      }
    },
    {
      "name": "Schärding",
      "point": {
        "latitude": 48.46051,
        "longitude": 13.43268,
        "elevation": 308.0
      }
    },
    {
      "name": "Steyr",
      "point": {
        "latitude": 48.05009,
        "longitude": 14.41827,
        "elevation": 337.0
      }
    },
    {
      "name": "Urfahr",
      "point": {
        "latitude": 48.319111,
        "longitude": 14.291085,
        "elevation": 257.0
      }
    },
    {
      "name": "Vöcklabruck",
      "point": {
        "latitude": 48.00334,
        "longitude": 13.65613,
        "elevation": 432.0
      }
    },
    {
      "name": "Wels",
      "point": {
        "latitude": 48.16542,
        "longitude": 14.03664,
        "elevation": 313.0
      }
    },
    {
      "name": "Feldkirchen in Kärnten",
      "point": {
        "latitude": 46.7267407,
        "longitude": 14.0888806,
        "elevation": 557.0
      }
    },
    {
      "name": "Hermagor",
      "point": {
        "latitude": 46.6273921,
        "longitude": 13.3711996,
        "elevation": 593.0
      }
    },
    {
      "name": "Klagenfurt",
      "point": {
        "latitude": 46.6364598,
        "longitude": 14.3122246,
        "elevation": 445.0
      }
    },
    {
      "name": "St. Veit an der Glan",
      "point": {
        "latitude": 46.76748,
        "longitude": 14.36151,
        "elevation": 480.0
      }
    },
    {
      "name": "Spittal an der Drau",
      "point": {
        "latitude": 46.79968,
        "longitude": 13.4928,
        "elevation": 560.0
      }
    },
    {
      "name": "Villach",
      "point": {
        "latitude": 46.60856,
        "longitude": 13.85062,
        "elevation": 497.0
      }
    },
    {
      "name": "Völkermarkt",
      "point": {
        "latitude": 46.66207,
        "longitude": 14.63359,
        "elevation": 464.0
      }
    },
    {
      "name": "Wolfsberg",
      "point": {
        "latitude": 46.8401,
        "longitude": 14.84277,
        "elevation": 450.0
      }
    },
    {
      "name": "Mürzzuschlag",
      "point": {
        "latitude": 47.60687,
        "longitude": 15.67171,
        "elevation": 670.0
      }
    },
    {
      "name": "Deutschlandsberg",
      "point": {
        "latitude": 46.81595,
        "longitude": 15.21338,
        "elevation": 371.0
      }
    },
    {
      "name": "Graz",
      "point": {
        "latitude": 47.070714,
        "longitude": 15.439504,
        "elevation": 362.0
      }
    },
    {
      "name": "Gröbming",
      "point": {
        "latitude": 47.4444782,
        "longitude": 13.9018725,
        "elevation": 768.0
      }
    },
    {
      "name": "Hartberg-Fürstenfeld",
      "point": {
        "latitude": 47.2815,
        "longitude": 15.97302,
        "elevation": 345.0
      }
    },
    {
      "name": "Leibnitz",
      "point": {
        "latitude": 46.79043,
        "longitude": 15.56207,
        "elevation": 271.0
      }
    },
    {
      "name": "Leoben",
      "point": {
        "latitude": 47.37639,
        "longitude": 15.09113,
        "elevation": 540.0
      }
    },
    {
      "name": "Liezen",
      "point": {
        "latitude": 47.56741,
        "longitude": 14.24315,
        "elevation": 663.0
      }
    },
    {
      "name": "Murau",
      "point": {
        "latitude": 47.11304,
        "longitude": 14.16904,
        "elevation": 839.0
      }
    },
    {
      "name": "Murtal",
      "point": {
        "latitude": 47.1687763,
        "longitude": 14.6600396,
        "elevation": 736.0
      }
    },
    {
      "name": "Feldbach",
      "point": {
        "latitude": 46.95279,
        "longitude": 15.88784,
        "elevation": 282.0
      }
    },
    {
      "name": "Voitsberg",
      "point": {
        "latitude": 47.043268,
        "longitude": 15.153633,
        "elevation": 390.0
      }
    },
    {
      "name": "Weiz",
      "point": {
        "latitude": 47.21717,
        "longitude": 15.62297,
        "elevation": 469.0
      }
    },
    {
      "name": "Amstetten",
      "point": {
        "latitude": 48.12502,
        "longitude": 14.86934,
        "elevation": 287.0
      }
    },
    {
      "name": "Baden",
      "point": {
        "latitude": 48.00214,
        "longitude": 16.23091,
        "elevation": 229.0
      }
    },
    {
      "name": "Bruck an der Leitha",
      "point": {
        "latitude": 48.02375,
        "longitude": 16.77534,
        "elevation": 156.0
      }
    },
    {
      "name": "Gänserndorf",
      "point": {
        "latitude": 48.34067,
        "longitude": 16.71754,
        "elevation": 164.0
      }
    },
    {
      "name": "Gmünd",
      "point": {
        "latitude": 48.77156,
        "longitude": 14.98511,
        "elevation": 490.0
      }
    },
    {
      "name": "Hollabrunn",
      "point": {
        "latitude": 48.5625696,
        "longitude": 16.0787228,
        "elevation": 224.0
      }
    },
    {
      "name": "Horn",
      "point": {
        "latitude": 48.66607,
        "longitude": 15.65716,
        "elevation": 313.0
      }
    },
    {
      "name": "Korneuburg",
      "point": {
        "latitude": 48.34472,
        "longitude": 16.33149,
        "elevation": 169.0
      }
    },
    {
      "name": "Krems an der Donau",
      "point": {
        "latitude": 48.40999,
        "longitude": 15.60384,
        "elevation": 199.0
      }
    },
    {
      "name": "Lilienfeld",
      "point": {
        "latitude": 48.0180638,
        "longitude": 15.5945498,
        "elevation": 400.0
      }
    },
    {
      "name": "Melk",
      "point": {
        "latitude": 48.22647,
        "longitude": 15.34996,
        "elevation": 251.0
      }
    },
    {
      "name": "Mistelbach",
      "point": {
        "latitude": 48.56743,
        "longitude": 16.5722,
        "elevation": 200.0
      }
    },
    {
      "name": "Mödling",
      "point": {
        "latitude": 48.08255,
        "longitude": 16.2869,
        "elevation": 220.0
      }
    },
    {
      "name": "Neunkirchen",
      "point": {
        "latitude": 47.72607,
        "longitude": 16.08121,
        "elevation": 366.0
      }
    },
    {
      "name": "St. Pölten",
      "point": {
        "latitude": 48.20353,
        "longitude": 15.63817,
        "elevation": 268.0
      }
    },
    {
      "name": "Scheibbs",
      "point": {
        "latitude": 48.00804,
        "longitude": 15.16781,
        "elevation": 338.0
      }
    },
    {
      "name": "Tulln an der Donau",
      "point": {
        "latitude": 48.3314949,
        "longitude": 16.060737,
        "elevation": 178.0
      }
    },
    {
      "name": "Waidhofen an der Thaya",
      "point": {
        "latitude": 48.81547,
        "longitude": 15.2833,
        "elevation": 501.0
      }
    },
    {
      "name": "Waidhofen an der Ybbs",
      "point": {
        "latitude": 47.96023,
        "longitude": 14.77283,
        "elevation": 360.0
      }
    },
    {
      "name": "Wiener Neustadt",
      "point": {
        "latitude": 47.80279,
        "longitude": 16.23318,
        "elevation": 271.0
      }
    },
    {
      "name": "Zwettl",
      "point": {
        "latitude": 48.6058353,
        "longitude": 15.1662692,
        "elevation": 531.0
      }
    },
    {
      "name": "Bludenz",
      "point": {
        "latitude": 47.15991,
        "longitude": 9.80821,
        "elevation": 562.0
      }
    },
    {
      "name": "Bregenz",
      "point": {
        "latitude": 47.50075,
        "longitude": 9.74231,
        "elevation": 408.0
      }
    },
    {
      "name": "Feldkirch",
      "point": {
        "latitude": 47.24128,
        "longitude": 9.6019,
        "elevation": 457.0
      }
    },
    {
      "name": "Hallein",
      "point": {
        "latitude": 47.68248,
        "longitude": 13.10037,
        "elevation": 446.0
      }
    },
    {
      "name": "Salzburg",
      "point": {
        "latitude": 47.80949,
        "longitude": 13.05501,
        "elevation": 431.0
      }
    },
    {
      "name": "St. Johann im Pongau",
      "point": {
        "latitude": 47.34892,
        "longitude": 13.20419,
        "elevation": 609.0
      }
    },
    {
      "name": "Tamsweg",
      "point": {
        "latitude": 47.12955,
        "longitude": 13.81036,
        "elevation": 1018.0
      }
    },
    {
      "name": "Zell am See",
      "point": {
        "latitude": 47.32352,
        "longitude": 12.79685,
        "elevation": 765.0
      }
    },
    {
      "name": "Imst",
      "point": {
        "latitude": 47.24013,
        "longitude": 10.73954,
        "elevation": 796.0
      }
    },
    {
      "name": "Innsbruck",
      "point": {
        "latitude": 47.2692124,
        "longitude": 11.4041024,
        "elevation": 576.0
      }
    },
    {
      "name": "Kitzbühel",
      "point": {
        "latitude": 47.44499,
        "longitude": 12.39143,
        "elevation": 757.0
      }
    },
    {
      "name": "Kufstein",
      "point": {
        "latitude": 47.58237,
        "longitude": 12.16275,
        "elevation": 491.0
      }
    },
    {
      "name": "Landeck",
      "point": {
        "latitude": 47.14057,
        "longitude": 10.56558,
        "elevation": 781.0
      }
    },
    {
      "name": "Lienz",
      "point": {
        "latitude": 46.82769,
        "longitude": 12.76272,
        "elevation": 676.0
      }
    },
    {
      "name": "Reutte",
      "point": {
        "latitude": 47.48879,
        "longitude": 10.71865,
        "elevation": 856.0
      }
    },
    {
      "name": "Schwaz",
      "point": {
        "latitude": 47.3502,
        "longitude": 11.70584,
        "elevation": 538.0
      }
    },
    {
      "name": "Eisenstadt",
      "point": {
        "latitude": 47.84637,
        "longitude": 16.52796,
        "elevation": 169.0
      }
    },
    {
      "name": "Güssing",
      "point": {
        "latitude": 47.05932,
        "longitude": 16.32449,
        "elevation": 226.0
      }
    },
    {
      "name": "Jennersdorf",
      "point": {
        "latitude": 46.93712,
        "longitude": 16.12961,
        "elevation": 247.0
      }
    },
    {
      "name": "Mattersburg",
      "point": {
        "latitude": 47.73625,
        "longitude": 16.39663,
        "elevation": 238.0
      }
    },
    {
      "name": "Neusiedl am See",
      "point": {
        "latitude": 47.94736,
        "longitude": 16.84537,
        "elevation": 125.0
      }
    },
    {
      "name": "Oberpullendorf",
      "point": {
        "latitude": 47.49497,
        "longitude": 16.50879,
        "elevation": 242.0
      }
    },
    {
      "name": "Oberwart",
      "point": {
        "latitude": 47.29482,
        "longitude": 16.19914,
        "elevation": 319.0
      }
    },
    {
      "name": "Rust",
      "point": {
        "latitude": 47.80238,
        "longitude": 16.67218,
        "elevation": 122.0
      }
    }
  ]
}